{
"type": "FeatureCollection",
"name": "ect_waypoints",
"crs": { "type": "name", "properties": { "name": "urn:ogc:def:crs:OGC:1.3:CRS84" } },
"features": [
{ "type": "Feature", "properties": { "title": "Lance Cove Beach Trail", "notes": "", "latitude": 47.072974, "longitude": -52.891204, "elevation": 44.0, "category": "trailhead"}, "geometry": { "type": "Point", "coordinates": [ -52.891204, 47.072974 ] } },
{ "type": "Feature", "properties": { "title": "Cape Broyle Trailhead", "notes": "Note: Due to the transitional nature of the northern trailhead for Cape Broyle Head, distances for this path in particular are very aproximate. With the current (Summer 2017) trailhead location, these measurements are at least 0.5km less than map distances. Sorry.", "latitude": 47.088739272341634, "longitude": -52.948050498962409, "elevation": 7.0, "category": "trailhead", "site_quality": null, "source_quality": null }, "geometry": { "type": "Point", "coordinates": [ -52.948050498962409, 47.088739272341634 ] } },
{ "type": "Feature", "properties": { "title": "02. Piccos Ridge Path", "type": "marker", "route": "Portugal Cove to Bauline", "length_km": 14.5, "difficulty": "Strenuous", "lat": 47.72083, "route_end": "north_end" }, "geometry": { "type": "Point", "coordinates": [ -52.83573, 47.72083, 0.0 ] } },
{ "type": "Feature", "properties": { "title": "15. Beaches Path", "type": "marker", "route": "Witless Bay to Mobile", "length_km": 7.1, "difficulty": "Easy", "lat": 47.262456, "route_end": "north_end" }, "geometry": { "type": "Point", "coordinates": [ -52.811472, 47.262456 ] } },
{ "type": "Feature", "properties": { "title": "02. Piccos Ridge Path", "type": "marker", "route": "Portugal Cove to Bauline", "length_km": 14.5, "difficulty": "Strenuous", "lat": 47.629248, "route_end": "south_end" }, "geometry": { "type": "Point", "coordinates": [ -52.858121, 47.629248 ] } },
{ "type": "Feature", "properties": { "title": "03. White Horse Path", "type": "marker", "route": "Bauline to Cape St. Francis", "length_km": 18.2, "difficulty": "Strenuous", "lat": 47.724382, "route_end": "south_end" }, "geometry": { "type": "Point", "coordinates": [ -52.832834, 47.724382 ] } },
{ "type": "Feature", "properties": { "title": "04. Biscan Cove Path", "type": "marker", "route": "Cape St. Francis to Pouch Cove", "length_km": 7.0, "difficulty": "Difficult", "lat": 47.803715, "route_end": "north_end" }, "geometry": { "type": "Point", "coordinates": [ -52.789156, 47.803715 ] } },
{ "type": "Feature", "properties": { "title": "04. Biscan Cove Path", "type": "marker", "route": "Cape St. Francis to Pouch Cove", "length_km": 7.0, "difficulty": "Difficult", "lat": 47.775906, "route_end": "south_end" }, "geometry": { "type": "Point", "coordinates": [ -52.763557, 47.775906 ] } },
{ "type": "Feature", "properties": { "title": "07. Silver Mine Head Path", "type": "marker", "route": "Torbay to Outer Cove", "length_km": 3.8, "difficulty": "Easy", "lat": 47.662381, "route_end": "north_end" }, "geometry": { "type": "Point", "coordinates": [ -52.710085, 47.662381 ] } },
{ "type": "Feature", "properties": { "title": "08. Cobblers Path", "type": "marker", "route": "Outer Cove to Logy Bay Path Status: Open Length: 5.0km", "length_km": 5.0, "difficulty": "Moderate", "lat": 47.655907, "route_end": "north_end" }, "geometry": { "type": "Point", "coordinates": [ -52.673693, 47.655907 ] } },
{ "type": "Feature", "properties": { "title": "09. Sugarloaf Path", "type": "marker", "route": "Logy Bay to Quidi Vidi Village (St. John's)", "length_km": 8.8, "difficulty": "Difficult", "lat": 47.623752, "route_end": "north_end" }, "geometry": { "type": "Point", "coordinates": [ -52.662749, 47.623752 ] } },
{ "type": "Feature", "properties": { "title": "11. Cape Spear Path", "type": "marker", "route": "Blackhead to Maddox Cove", "length_km": 15.4, "difficulty": "Moderate", "lat": 47.52525, "route_end": "north_end" }, "geometry": { "type": "Point", "coordinates": [ -52.654338, 47.52525 ] } },
{ "type": "Feature", "properties": { "title": "13. Spout Path", "type": "marker", "route": "Shoal Bay Road (Goulds) to Bay Bulls", "length_km": 16.2, "difficulty": "Strenuous", "lat": 47.391929, "route_end": "north_end" }, "geometry": { "type": "Point", "coordinates": [ -52.715535, 47.391929 ] } },
{ "type": "Feature", "properties": { "title": "13. Spout Path", "type": "marker", "route": "Shoal Bay Road (Goulds) to Bay Bulls", "length_km": 16.2, "difficulty": "Strenuous", "lat": 47.311769, "route_end": "south_end" }, "geometry": { "type": "Point", "coordinates": [ -52.782955, 47.311769 ] } },
{ "type": "Feature", "properties": { "title": "15. Beaches Path", "type": "marker", "route": "Witless Bay to Mobile", "length_km": 7.1, "difficulty": "Easy", "lat": 47.248577, "route_end": "south_end" }, "geometry": { "type": "Point", "coordinates": [ -52.841084, 47.248577 ] } },
{ "type": "Feature", "properties": { "title": "12. Motion Path", "type": "marker", "route": "Petty Harbour to Shoal Bay Road (Goulds)", "length_km": 13.8, "difficulty": "Difficult", "lat": 47.463162, "route_end": "north_end" }, "geometry": { "type": "Point", "coordinates": [ -52.705557, 47.463162 ] } },
{ "type": "Feature", "properties": { "title": "17. La Manche Village Path", "type": "marker", "route": "Tors Cove to La Manche Village", "length_km": 6.4, "difficulty": "Easy", "lat": 47.208112, "route_end": "north_end" }, "geometry": { "type": "Point", "coordinates": [ -52.848959, 47.208112 ] } },
{ "type": "Feature", "properties": { "title": "18. Flamber Head Path", "type": "marker", "route": "La Manche Village to Brigus South", "length_km": 11.5, "difficulty": "Difficult", "lat": 47.166609, "route_end": "north_end" }, "geometry": { "type": "Point", "coordinates": [ -52.866474, 47.166609 ] } },
{ "type": "Feature", "properties": { "title": "19. Brigus Head Path", "type": "marker", "route": "Brigus South to Admirals Cove", "length_km": 6.4, "difficulty": "Moderate", "lat": 47.112233, "route_end": "north_end" }, "geometry": { "type": "Point", "coordinates": [ -52.883753, 47.112233 ] } },
{ "type": "Feature", "properties": { "title": "19. Brigus Head Path", "type": "marker", "route": "Brigus South to Admirals Cove", "length_km": 6.4, "difficulty": "Moderate", "lat": 47.101096, "route_end": "south_end" }, "geometry": { "type": "Point", "coordinates": [ -52.896724, 47.101096 ] } },
{ "type": "Feature", "properties": { "title": "20. Cape Broyle Head Path", "type": "marker", "route": "Cape Broyle to Calvert", "length_km": 19.4, "difficulty": "Strenuous", "lat": 47.051148, "route_end": "south_end" }, "geometry": { "type": "Point", "coordinates": [ -52.86428, 47.051148 ] } },
{ "type": "Feature", "properties": { "title": "22. Sounding Hills Path", "type": "marker", "route": "Ferryland to Aquaforte", "length_km": 5.4, "difficulty": "Moderate", "lat": 47.016978, "route_end": "north_end" }, "geometry": { "type": "Point", "coordinates": [ -52.892303, 47.016978 ] } },
{ "type": "Feature", "properties": { "title": "23. Spurwink Island Path", "type": "marker", "route": "Aquaforte to Port Kirwan", "length_km": 20.4, "difficulty": "Difficult", "lat": 47.008967, "route_end": "north_end" }, "geometry": { "type": "Point", "coordinates": [ -52.964959, 47.008967 ] } },
{ "type": "Feature", "properties": { "title": "23. Spurwink Island Path", "type": "marker", "route": "Aquaforte to Port Kirwan", "length_km": 20.4, "difficulty": "Difficult", "lat": 46.969184, "route_end": "south_end" }, "geometry": { "type": "Point", "coordinates": [ -52.909384, 46.969184 ] } },
{ "type": "Feature", "properties": { "title": "25. Island Meadow Path", "type": "marker", "route": "Renews to Cappahayden", "length_km": 10.0, "difficulty": "Moderate", "lat": 46.917822, "route_end": "north_end" }, "geometry": { "type": "Point", "coordinates": [ -52.940755, 46.917822 ] } },
{ "type": "Feature", "properties": { "title": "03. White Horse Path", "type": "marker", "route": "Bauline to Cape St. Francis", "length_km": 18.2, "difficulty": "Strenuous", "lat": 47.80771, "route_end": "north_end" }, "geometry": { "type": "Point", "coordinates": [ -52.78663, 47.80771, 0.0 ] } },
{ "type": "Feature", "properties": { "title": "21. Caplin Bay Path", "type": "marker", "route": "Calvert to Ferryland", "length_km": 5.6, "difficulty": "Moderate", "lat": 47.050476, "route_end": "north_end" }, "geometry": { "type": "Point", "coordinates": [ -52.901917, 47.050476 ] } },
{ "type": "Feature", "properties": { "title": "14. Mickeleens Path", "type": "marker", "route": "Bay Bulls to Witless Bay", "length_km": 7.2, "difficulty": "Moderate", "lat": 47.301308, "route_end": "north_end" }, "geometry": { "type": "Point", "coordinates": [ -52.799885, 47.301308 ] } },
{ "type": "Feature", "properties": { "title": "10. Deadmans Bay Path", "type": "marker", "route": "Fort Amherst (St. John's) to Blackhead", "length_km": 10.5, "difficulty": "Difficult", "lat": 47.563612, "route_end": "north_end" }, "geometry": { "type": "Point", "coordinates": [ -52.682576, 47.563612 ] } },
{ "type": "Feature", "properties": { "title": "17. La Manche Village Path", "type": "marker", "route": "Tors Cove to La Manche Village", "length_km": 6.4, "difficulty": "Easy", "lat": 47.166697, "route_end": "south_end" }, "geometry": { "type": "Point", "coordinates": [ -52.865782, 47.166697 ] } },
{ "type": "Feature", "properties": { "title": "05. Stiles Cove Path", "type": "marker", "route": "Pouch Cove to Flatrock", "length_km": 15.1, "difficulty": "Moderate", "lat": 47.70706, "route_end": "south_end" }, "geometry": { "type": "Point", "coordinates": [ -52.70783, 47.70706, 0.0 ] } },
{ "type": "Feature", "properties": { "title": "06. Father Troys Trail", "type": "marker", "route": "Flatrock to Torbay", "length_km": 8.9, "difficulty": "Easy", "lat": 47.70104, "route_end": "north_end" }, "geometry": { "type": "Point", "coordinates": [ -52.701416, 47.70104 ] } },
{ "type": "Feature", "properties": { "title": "06. Father Troys Trail", "type": "marker", "route": "Flatrock to Torbay", "length_km": 8.9, "difficulty": "Easy", "lat": 47.65929, "route_end": "south_end" }, "geometry": { "type": "Point", "coordinates": [ -52.72626, 47.65929, 0.0 ] } },
{ "type": "Feature", "properties": { "title": "07. Silver Mine Head Path", "type": "marker", "route": "Torbay to Outer Cove", "length_km": 3.8, "difficulty": "Easy", "lat": 47.65328, "route_end": "south_end" }, "geometry": { "type": "Point", "coordinates": [ -52.68659, 47.65328, 0.0 ] } },
{ "type": "Feature", "properties": { "title": "08. Cobblers Path", "type": "marker", "route": "Outer Cove to Logy Bay", "length_km": 5.0, "difficulty": "Moderate", "lat": 47.6348, "route_end": "south_end" }, "geometry": { "type": "Point", "coordinates": [ -52.672513, 47.6348 ] } },
{ "type": "Feature", "properties": { "title": "09. Sugarloaf Path", "type": "marker", "route": "Logy Bay to Quidi Vidi Village (St. John's)", "length_km": 8.8, "difficulty": "Difficult", "lat": 47.58303, "route_end": "south_end" }, "geometry": { "type": "Point", "coordinates": [ -52.67676, 47.58303, 0.0 ] } },
{ "type": "Feature", "properties": { "title": "10. Deadmans Bay Path", "type": "marker", "route": "Fort Amherst (St. John's) to Blackhead", "length_km": 10.5, "difficulty": "Difficult", "lat": 47.52612, "route_end": "south_end" }, "geometry": { "type": "Point", "coordinates": [ -52.65723, 47.52612, 0.0 ] } },
{ "type": "Feature", "properties": { "title": "12. Motion Path", "type": "marker", "route": "Petty Harbour to Shoal Bay Road (Goulds)", "length_km": 13.8, "difficulty": "Difficult", "lat": 47.393323, "route_end": "south_end" }, "geometry": { "type": "Point", "coordinates": [ -52.714934, 47.393323 ] } },
{ "type": "Feature", "properties": { "title": "14. Mickeleens Path", "type": "marker", "route": "Bay Bulls to Witless Bay", "length_km": 7.2, "difficulty": "Moderate", "lat": 47.28492, "route_end": "south_end" }, "geometry": { "type": "Point", "coordinates": [ -52.80129, 47.28492, 0.0 ] } },
{ "type": "Feature", "properties": { "title": "16. Tinkers Point Path", "type": "marker", "route": "Mobile to Tors Cove", "length_km": 5.0, "difficulty": "Easy", "lat": 47.239968, "route_end": "north_end" }, "geometry": { "type": "Point", "coordinates": [ -52.832479, 47.239968 ] } },
{ "type": "Feature", "properties": { "title": "16. Tinkers Point Path", "type": "marker", "route": "Mobile to Tors Cove", "length_km": 5.0, "difficulty": "Easy", "lat": 47.214409, "route_end": "south_end" }, "geometry": { "type": "Point", "coordinates": [ -52.845397, 47.214409 ] } },
{ "type": "Feature", "properties": { "title": "11. Cape Spear Path", "type": "marker", "route": "Blackhead to Maddox Cove", "length_km": 15.4, "difficulty": "Moderate", "lat": 47.47246, "route_end": "south_end" }, "geometry": { "type": "Point", "coordinates": [ -52.69806, 47.47246, 0.0 ] } },
{ "type": "Feature", "properties": { "title": "01. Long Shore Path", "type": "marker", "route": "Topsail to Portugal Cove", "length_km": 17.2, "difficulty": "Difficult", "lat": 47.628698, "route_end": "north_end" }, "geometry": { "type": "Point", "coordinates": [ -52.846835, 47.628698 ] } },
{ "type": "Feature", "properties": { "title": "20. Cape Broyle Head Path", "type": "marker", "route": "Cape Broyle to Calvert", "length_km": 19.4, "difficulty": "Strenuous", "lat": 47.087306, "route_end": "north_end" }, "geometry": { "type": "Point", "coordinates": [ -52.94157, 47.087306 ] } },
{ "type": "Feature", "properties": { "title": "21. Caplin Bay Path", "type": "marker", "route": "Calvert to Ferryland", "length_km": 5.6, "difficulty": "Moderate", "lat": 47.02337, "route_end": "south_end" }, "geometry": { "type": "Point", "coordinates": [ -52.88622, 47.02337, 0.0 ] } },
{ "type": "Feature", "properties": { "title": "22. Sounding Hills Path", "type": "marker", "route": "Ferryland to Aquaforte", "length_km": 5.4, "difficulty": "Moderate", "lat": 47.01215, "route_end": "south_end" }, "geometry": { "type": "Point", "coordinates": [ -52.93302, 47.01215, 0.0 ] } },
{ "type": "Feature", "properties": { "title": "24. Bear Cove Point Path", "type": "marker", "route": "Kingmans Cove to Renews", "length_km": 11.9, "difficulty": "Moderate", "lat": 46.964439, "route_end": "north_end" }, "geometry": { "type": "Point", "coordinates": [ -52.927923, 46.964439 ] } },
{ "type": "Feature", "properties": { "title": "24. Bear Cove Point Path", "type": "marker", "route": "Kingmans Cove to Renews", "length_km": 11.9, "difficulty": "Moderate", "lat": 46.92139, "route_end": "south_end" }, "geometry": { "type": "Point", "coordinates": [ -52.93131, 46.92139, 0.0 ] } },
{ "type": "Feature", "properties": { "title": "25. Island Meadow Path", "type": "marker", "route": "Renews to Cappahayden", "length_km": 10.0, "difficulty": "Moderate", "lat": 46.86098, "route_end": "south_end" }, "geometry": { "type": "Point", "coordinates": [ -52.94487, 46.86098, 0.0 ] } },
{ "type": "Feature", "properties": { "title": "01. Long Shore Path", "type": "marker", "route": "Topsail to Portugal Cove", "length_km": 17.2, "difficulty": "Difficult", "lat": 47.544576, "route_end": "south_end" }, "geometry": { "type": "Point", "coordinates": [ -52.917367, 47.544576, 0.0 ] } },
{ "type": "Feature", "properties": { "title": "18. Flamber Head Path", "type": "marker", "route": "La Manche Village to Brigus South", "length_km": 11.5, "difficulty": "Difficult", "lat": 47.114726, "route_end": "south_end" }, "geometry": { "type": "Point", "coordinates": [ -52.882685, 47.114726 ] } },
{ "type": "Feature", "properties": { "title": "05. Stiles Cove Path", "type": "marker", "route": "Pouch Cove to Flatrock", "length_km": 15.1, "difficulty": "Moderate", "lat": 47.761491, "route_end": "north_end" }, "geometry": { "type": "Point", "coordinates": [ -52.760103, 47.761491 ] } }
]
}
